{"type":"FeatureCollection", "features":[
{"type":"Feature","geometry":{"type":"Point","coordinates":[113.00183099990079,28.160581000113098]},"properties":{"OBJECTID":1,"name":"茶颜悦色(凯德广场店)","address":"长沙市雨花区韶山中路421号凯德广场F4","province":"湖南省","city":"长沙市","area":"雨花区","level":5}},
{"type":"Feature","geometry":{"type":"Point","coordinates":[112.95109600028024,28.174969999965583]},"properties":{"OBJECTID":2,"name":"茶颜悦色(天马一店)","address":"湖南省长沙市岳麓区天马村桔子洲街道阜埠河路渔湾码头A栋101室(天桥下)","province":"湖南省","city":"长沙市","area":"岳麓区","level":8}},
{"type":"Feature","geometry":{"type":"Point","coordinates":[112.97404672107336,28.192497476004235]},"properties":{"OBJECTID":3,"name":"茶颜悦色(西长街店)","address":"湖南省长沙市天心区五一大道717号","province":"湖南省","city":"长沙市","area":"天心区","level":4}},
{"type":"Feature","geometry":{"type":"Point","coordinates":[112.82482400032745,28.36291600037316]},"properties":{"OBJECTID":4,"name":"茶颜悦色(望城步行街A8店)","address":"长沙市望城区高塘岭街道联诚国际S-B4栋112号","province":"湖南省","city":"长沙市","area":"望城区","level":6}},
{"type":"Feature","geometry":{"type":"Point","coordinates":[112.98590100003116,28.263170999741874]},"properties":{"OBJECTID":5,"name":"茶颜悦色(湘江世纪城店)","address":"湖南省长沙市开福区凤亭路正新鸡排隔壁","province":"湖南省","city":"长沙市","area":"开福区","level":3}},
{"type":"Feature","geometry":{"type":"Point","coordinates":[113.03648599992903,28.197186000133854]},"properties":{"OBJECTID":6,"name":"茶颜悦色(万家丽国际购物广场店)","address":"长沙市芙蓉区万家丽路99号万家丽国际购物广场B2","province":"湖南省","city":"长沙市","area":"芙蓉区","level":1}},
{"type":"Feature","geometry":{"type":"Point","coordinates":[113.01607000003048,28.056921999750557]},"properties":{"OBJECTID":7,"name":"茶颜悦色(龙湾国际社区店)","address":"湖南省长沙市天心区暮云镇高云村西湖村龙湾国际社区二期商层2001栋212号","province":"湖南省","city":"长沙市","area":"天心区","level":1}},
{"type":"Feature","geometry":{"type":"Point","coordinates":[112.97309127729136,28.189852401684504]},"properties":{"OBJECTID":8,"name":"茶颜悦色(坡子街一店)","address":"湖南省长沙市天心区坡子街街道象牙红ktv对面海伦司楼下","province":"湖南省","city":"长沙市","area":"天心区","level":10}},
{"type":"Feature","geometry":{"type":"Point","coordinates":[113.01361800027053,28.199780000146916]},"properties":{"OBJECTID":9,"name":"茶颜悦色(朝阳路店)","address":"湖南省长沙市芙蓉区朝阳路228号-2号","province":"湖南省","city":"长沙市","area":"芙蓉区","level":7}},
{"type":"Feature","geometry":{"type":"Point","coordinates":[112.9440900000535,28.123397000371313]},"properties":{"OBJECTID":10,"name":"茶颜悦色(长沙荟聚店)","address":"湖南省长沙市岳麓区洋湖路253号(潭州大道与景园路交叉口东北侧)长沙荟聚F2","province":"湖南省","city":"长沙市","area":"岳麓区","level":1}},
{"type":"Feature","geometry":{"type":"Point","coordinates":[113.01616399986881,28.14213100004565]},"properties":{"OBJECTID":11,"name":"茶颜悦色(民政学院店)","address":"湖南省长沙市雨花区香樟路254号步步旺超市旁","province":"湖南省","city":"长沙市","area":"雨花区","level":3}},
{"type":"Feature","geometry":{"type":"Point","coordinates":[112.99658499989789,28.17573600021626]},"properties":{"OBJECTID":12,"name":"茶颜悦色(雅礼中学店)","address":"湖南省长沙市雨花区劳动西路377号中扬大厦","province":"湖南省","city":"长沙市","area":"雨花区","level":9}},
{"type":"Feature","geometry":{"type":"Point","coordinates":[113.03642199967555,28.195519999748228]},"properties":{"OBJECTID":13,"name":"茶颜悦色(东方新城东门外卖镖局店)","address":"湖南省长沙市芙蓉区万家丽中路一段99号601万家丽国际购物广场6楼A区09","province":"湖南省","city":"长沙市","area":"芙蓉区","level":2}},
{"type":"Feature","geometry":{"type":"Point","coordinates":[113.10082500007377,28.246956000219313]},"properties":{"OBJECTID":14,"name":"茶颜悦色(乐运魔方店)","address":"湖南省长沙市长沙县东二路乐运魔方负1楼","province":"湖南省","city":"长沙市","area":"长沙县","level":10}},
{"type":"Feature","geometry":{"type":"Point","coordinates":[112.9916024488032,28.195225056425695]},"properties":{"OBJECTID":15,"name":"茶颜悦色(平和堂百货店)","address":"长沙市芙蓉区犁头后街新世界百货(长沙时尚广场店)长沙时尚广场B1","province":"湖南省","city":"长沙市","area":"芙蓉区","level":10}},
{"type":"Feature","geometry":{"type":"Point","coordinates":[112.98022943529622,28.15737030255474]},"properties":{"OBJECTID":16,"name":"茶颜悦色(理工店)","address":"湖南省长沙市天心区赤岭路V立方一层门口","province":"湖南省","city":"长沙市","area":"天心区","level":6}},
{"type":"Feature","geometry":{"type":"Point","coordinates":[112.9479859404538,28.190771855185005]},"properties":{"OBJECTID":17,"name":"茶颜悦色(桃子湖店)","address":"湖南省长沙市岳麓区麓山路255号","province":"湖南省","city":"长沙市","area":"岳麓区","level":4}},
{"type":"Feature","geometry":{"type":"Point","coordinates":[112.9156919998859,28.2255119996791]},"properties":{"OBJECTID":18,"name":"茶颜悦色(时代广场店)","address":"湖南省长沙市岳麓区桐梓坡西路138号时代广场F1","province":"湖南省","city":"长沙市","area":"岳麓区","level":1}},
{"type":"Feature","geometry":{"type":"Point","coordinates":[112.97896400028844,28.178880999558544]},"properties":{"OBJECTID":19,"name":"茶颜悦色(东瓜山店)","address":"湖南省长沙市天心区裕南街78号","province":"湖南省","city":"长沙市","area":"天心区","level":10}},
{"type":"Feature","geometry":{"type":"Point","coordinates":[112.99518900027226,28.22147399962546]},"properties":{"OBJECTID":20,"name":"茶颜悦色(CFC富兴时代店)","address":"湖南省长沙市开福区芙蓉中路1段-269号3楼","province":"湖南省","city":"长沙市","area":"开福区","level":5}},
{"type":"Feature","geometry":{"type":"Point","coordinates":[112.95642581915047,28.196274875018787]},"properties":{"OBJECTID":21,"name":"茶颜悦色(橘子洲店)","address":"湖南省长沙市岳麓区桔子洲街道东门城楼下","province":"湖南省","city":"长沙市","area":"岳麓区","level":7}},
{"type":"Feature","geometry":{"type":"Point","coordinates":[112.88263399975938,28.239059000272675]},"properties":{"OBJECTID":22,"name":"茶颜悦色(兴盛优选店)","address":"湖南省长沙市岳麓区青山路662号芯城科技园二期1栋101室","province":"湖南省","city":"长沙市","area":"岳麓区","level":2}},
{"type":"Feature","geometry":{"type":"Point","coordinates":[113.04092400044237,28.1392460001029]},"properties":{"OBJECTID":23,"name":"茶颜悦色(喜盈门一店)","address":"长沙市雨花区万家丽中路三段36号喜盈门·范城购物中心G","province":"湖南省","city":"长沙市","area":"雨花区","level":7}},
{"type":"Feature","geometry":{"type":"Point","coordinates":[112.99470300034329,28.23020800039893]},"properties":{"OBJECTID":24,"name":"茶颜悦色(华创国际广场店)","address":"湖南省长沙市开福区芙蓉中路一段109号华创国际广场负1楼","province":"湖南省","city":"长沙市","area":"开福区","level":2}},
{"type":"Feature","geometry":{"type":"Point","coordinates":[112.99391513066689,28.198779939342383]},"properties":{"OBJECTID":25,"name":"茶颜悦色(新世界百货店)","address":"湖南省长沙市芙蓉区五一大道766号中天行政公馆4楼","province":"湖南省","city":"长沙市","area":"芙蓉区","level":6}},
{"type":"Feature","geometry":{"type":"Point","coordinates":[112.94278300003543,28.193637000147476]},"properties":{"OBJECTID":26,"name":"茶颜悦色(岳麓山店)","address":"长沙市岳麓区桔子洲街道岳麓公园内山顶登高路58号","province":"湖南省","city":"长沙市","area":"岳麓区","level":8}},
{"type":"Feature","geometry":{"type":"Point","coordinates":[112.97025585928992,28.191748778666973]},"properties":{"OBJECTID":27,"name":"茶颜悦色(太平街店)","address":"湖南省长沙市天心区太平老街114-118号","province":"湖南省","city":"长沙市","area":"天心区","level":10}},
{"type":"Feature","geometry":{"type":"Point","coordinates":[113.08888399979685,28.259883000100444]},"properties":{"OBJECTID":28,"name":"茶颜悦色(大众传媒店)","address":"湖南省长沙市长沙县特立路128号","province":"湖南省","city":"长沙市","area":"长沙县","level":10}},
{"type":"Feature","geometry":{"type":"Point","coordinates":[112.98402399980785,28.206119000191734]},"properties":{"OBJECTID":29,"name":"茶颜悦色(中山亭三店)","address":"湖南省长沙市开福区中山路268号南洋大厦一楼","province":"湖南省","city":"长沙市","area":"开福区","level":6}},
{"type":"Feature","geometry":{"type":"Point","coordinates":[113.09338200037905,28.25385099982384]},"properties":{"OBJECTID":30,"name":"茶颜悦色(万象汇广场店)","address":"湖南省长沙市长沙县棠坡路与星沙大道178号万象汇广场F3","province":"湖南省","city":"长沙市","area":"长沙县","level":9}},
{"type":"Feature","geometry":{"type":"Point","coordinates":[112.97495421295099,28.1883838700316]},"properties":{"OBJECTID":31,"name":"茶颜悦色(三王街店)","address":"长沙市天心区解放西路209号福达银座F1","province":"湖南省","city":"长沙市","area":"天心区","level":1}},
{"type":"Feature","geometry":{"type":"Point","coordinates":[113.05458700009001,28.242553000420685]},"properties":{"OBJECTID":32,"name":"茶颜悦色(湖南广电粉丝街店)","address":"湖南省长沙市开福区三一大道471号圣爵菲斯奔园负1楼","province":"湖南省","city":"长沙市","area":"开福区","level":8}},
{"type":"Feature","geometry":{"type":"Point","coordinates":[112.98913900006482,28.230771000281493]},"properties":{"OBJECTID":33,"name":"茶颜悦色(华夏店)","address":"湖南省长沙市开福区华夏路133-8号","province":"湖南省","city":"长沙市","area":"开福区","level":10}},
{"type":"Feature","geometry":{"type":"Point","coordinates":[112.98378530260698,28.197080621707155]},"properties":{"OBJECTID":34,"name":"茶颜悦色(五一里店)","address":"长沙市芙蓉区黄兴中路188号乐和城F5","province":"湖南省","city":"长沙市","area":"芙蓉区","level":10}},
{"type":"Feature","geometry":{"type":"Point","coordinates":[113.0718260000699,28.15361199979401]},"properties":{"OBJECTID":35,"name":"茶颜悦色(高铁站店)","address":"长沙市雨花区红旗路长沙南站候车厅二楼B12-B13检票口楼上","province":"湖南省","city":"长沙市","area":"雨花区","level":10}},
{"type":"Feature","geometry":{"type":"Point","coordinates":[112.94542718583853,28.14755573069374]},"properties":{"OBJECTID":36,"name":"茶颜悦色(阳光100凤凰街店)","address":"湖南省长沙市岳麓区岳麓街道阳光100凤凰街18栋1037室","province":"湖南省","city":"长沙市","area":"岳麓区","level":6}},
{"type":"Feature","geometry":{"type":"Point","coordinates":[112.99895622232344,28.21724454521376]},"properties":{"OBJECTID":37,"name":"茶颜悦色(公园大都会店)","address":"湖南省长沙市开福区东风路71号","province":"湖南省","city":"长沙市","area":"开福区","level":3}},
{"type":"Feature","geometry":{"type":"Point","coordinates":[113.07376799969347,28.152714999797467]},"properties":{"OBJECTID":38,"name":"茶颜悦色(高铁南二店)","address":"雨花区雨花大道武广高铁站东广场进站口正西方向78米","province":"湖南省","city":"长沙市","area":"雨花区","level":6}},
{"type":"Feature","geometry":{"type":"Point","coordinates":[113.0028360003812,28.191753999647403]},"properties":{"OBJECTID":39,"name":"茶颜悦色(窑岭店)","address":"湖南省长沙市芙蓉区人民中路201号","province":"湖南省","city":"长沙市","area":"芙蓉区","level":3}},
{"type":"Feature","geometry":{"type":"Point","coordinates":[113.026930438411,28.17817436833144]},"properties":{"OBJECTID":40,"name":"茶颜悦色(上河国际店)","address":"湖南省长沙市雨花区西子街146号上河国际商业广场一楼","province":"湖南省","city":"长沙市","area":"雨花区","level":6}},
{"type":"Feature","geometry":{"type":"Point","coordinates":[113.11411699969983,28.22172999973975]},"properties":{"OBJECTID":41,"name":"茶颜悦色(泉塘店)","address":"长沙市长沙县泉塘街道泉塘社区安置区二期16栋297号1楼","province":"湖南省","city":"长沙市","area":"长沙县","level":4}},
{"type":"Feature","geometry":{"type":"Point","coordinates":[112.98644199979856,28.19735699992566]},"properties":{"OBJECTID":42,"name":"茶颜悦色(九龙国金中心店)","address":"湖南省长沙市芙蓉区定王台街道东牌楼路长沙国金中心商场地库一层LG163-8号","province":"湖南省","city":"长沙市","area":"芙蓉区","level":2}},
{"type":"Feature","geometry":{"type":"Point","coordinates":[112.9100590000229,28.20232999992959]},"properties":{"OBJECTID":43,"name":"茶颜悦色(长沙金茂览秀城店)","address":"湖南省长沙市岳麓区梅溪湖路文化艺术中心地铁站上方金茂览秀城LG层","province":"湖南省","city":"长沙市","area":"岳麓区","level":8}},
{"type":"Feature","geometry":{"type":"Point","coordinates":[112.99501999967333,28.20948499983291]},"properties":{"OBJECTID":44,"name":"茶颜悦色(省展览馆店)","address":"湖南省长沙市开福区营盘东路13号","province":"湖南省","city":"长沙市","area":"开福区","level":9}},
{"type":"Feature","geometry":{"type":"Point","coordinates":[112.9427389998051,28.22451999979819]},"properties":{"OBJECTID":45,"name":"茶颜悦色(湘腾商业广场店)","address":"湖南省长沙市岳麓区金星路428号步步高广场一楼","province":"湖南省","city":"长沙市","area":"岳麓区","level":10}},
{"type":"Feature","geometry":{"type":"Point","coordinates":[112.94920999964188,28.18468300002047]},"properties":{"OBJECTID":46,"name":"茶颜悦色(登高路店)","address":"湖南省长沙市岳麓区登高路58号","province":"湖南省","city":"长沙市","area":"岳麓区","level":1}},
{"type":"Feature","geometry":{"type":"Point","coordinates":[112.99133799984884,28.214531999652138]},"properties":{"OBJECTID":47,"name":"茶颜悦色(ICity美好生活中心店)","address":"湖南省长沙市开福区湘春路与芙蓉中路交叉路口往西北约100米(泊富国际广场)泊富国际广场-东区ICITY美好生活中心F3","province":"湖南省","city":"长沙市","area":"开福区","level":1}},
{"type":"Feature","geometry":{"type":"Point","coordinates":[112.87779100035448,28.207141999703595]},"properties":{"OBJECTID":48,"name":"茶颜悦色(涉外店)","address":"湖南省长沙市岳麓区高新开发区枫林三路与麓松路交汇处的东北角东塘商业大楼一楼A03商铺","province":"湖南省","city":"长沙市","area":"岳麓区","level":6}},
{"type":"Feature","geometry":{"type":"Point","coordinates":[112.95844200336182,28.205021999965368]},"properties":{"OBJECTID":49,"name":"茶颜悦色(绿地店)","address":"长沙市岳麓区银盆南路绿地缤纷荟(溁湾镇地铁站8号口旁)","province":"湖南省","city":"长沙市","area":"岳麓区","level":8}},
{"type":"Feature","geometry":{"type":"Point","coordinates":[113.04939699997158,28.17636599959127]},"properties":{"OBJECTID":50,"name":"茶颜悦色(运达汇店)","address":"湖南省长沙市雨花区长沙大道567号运达汇负一楼","province":"湖南省","city":"长沙市","area":"雨花区","level":9}},
{"type":"Feature","geometry":{"type":"Point","coordinates":[113.06599199993093,28.16305299989608]},"properties":{"OBJECTID":51,"name":"茶颜悦色(长沙高铁吾悦广场店)","address":"长沙市雨花区劳动东路与花侯路交叉口西南侧长沙高铁吾悦广场F6","province":"湖南省","city":"长沙市","area":"雨花区","level":8}},
{"type":"Feature","geometry":{"type":"Point","coordinates":[113.05314900032613,28.16281399966641]},"properties":{"OBJECTID":52,"name":"茶颜悦色(保利MALL店)","address":"湖南省长沙市雨花区劳动东路268号保利MALLF6","province":"湖南省","city":"长沙市","area":"雨花区","level":10}},
{"type":"Feature","geometry":{"type":"Point","coordinates":[112.96333700000264,28.2478920002157]},"properties":{"OBJECTID":53,"name":"茶颜悦色(凯德壹中心四楼店)","address":"湖南省长沙市岳麓区茶子山路与观沙岭路交汇处凯德壹中心F4","province":"湖南省","city":"长沙市","area":"岳麓区","level":1}},
{"type":"Feature","geometry":{"type":"Point","coordinates":[112.91827400024499,28.216956999965646]},"properties":{"OBJECTID":54,"name":"茶颜悦色(汽车西站玉兰路店)","address":"湖南省长沙市岳麓区玉兰路359号","province":"湖南省","city":"长沙市","area":"岳麓区","level":10}}
]}
